VENUE,H_TEAM,LAT,LNG,LOCATION,MANUAL_ENTRY
"""TRIUMPH"" SPORTS PALACE",BC TRIUMPH LYUBERTSY,55.675268,37.891517,"Lyubertsy, Lyuberetsky District, Moskovskaya oblast', Russia",False
"""TRIUMPH"" SPORTS PALACE",SPARTAK SAINT PETERSBURG,55.675268,37.891517,"Lyubertsy, Lyuberetsky District, Moskovskaya oblast', Russia",False
"""TRIUMPH"" SPORTS PALACE",TRIUMPH LYUBERTSY MR,55.675268,37.891517,"Lyubertsy, Lyuberetsky District, Moskovskaya oblast', Russia",False
ABDI IPEKCI ARENA,GALATASARAY ODEABANK ISTANBUL,40.9968388,28.9194125,"Kazlıçeşme, Zeytinburnu, İstanbul, Türkiye",False
ABDI IPEKCI ARENA,KHIMIK YUZHNE,40.9968388,28.9194125,"Kazlıçeşme, Zeytinburnu, İstanbul, Türkiye",False
ABDI IPEKÇI SPORTS HALL,GALATASARAY CAFE CROWN,40.9968388,28.9194125,"Kazlıçeşme, Zeytinburnu, İstanbul, Türkiye",False
ABDI IPEKÇI SPORTS HALL,GALATASARAY MEDICAL PARK,40.9968388,28.9194125,"Kazlıçeşme, Zeytinburnu, İstanbul, Türkiye",False
AHMET CÖMERT SPORTS HALL,GALATASARAY CAFE CROWN,40.9894954,28.85275469999999,"Zuhuratbaba, Bakırköy, İstanbul, Türkiye",False
AKATLAR ARENA,BAHCESEHIR KOLEJI ISTANBUL,41.0856143,29.0256257,"Akatlar, Beşiktaş, İstanbul, Türkiye",False
ALEKSANDAR NIKOLIC HALL,CRVENA ZVEZDA MTS BELGRADE,44.815548,20.4847738,"Beograd, Grad Beograd, Serbia",False
ALEKSANDAR NIKOLIC HALL,PARTIZAN NIS BELGRADE,44.815548,20.4847738,"Beograd, Grad Beograd, Serbia",False
ANDREAS PAPANDREOU STADIUM,PANELLINIOS,37.998404028703355 ,23.73469936432684,"Damaskineas 2, Peristeri 121 37, Grčija",True
ANDREAS PAPANDREU,PANELLINIOS,37.998404028703355,23.73469936432684,"Damaskineas 2, Peristeri 121 37, Grčija",True
ANKARA ARENA,AYKON TED ANKARA KOLEJLILER,39.93812747910149,32.84375971754475,"Batı Sitesi Mahallesi, Ankara Hipodromu Kavşağı No:2, 06370 Altındağ/Ankara, Turčija",True
ANKARA SPOR SALONU,TURK TELEKOM ANKARA,39.9379959,32.8437919,"Batı Sitesi Mahallesi, Altındağ, Ankara, Türkiye",False
ANKARA SPORT HALL,AYKON TED ANKARA KOLEJLILER,39.9399847,32.848817,"Anafartalar, Altındağ, Ankara, Türkiye",False
ANTARES,LE MANS SARTHE BASKET,47.95621309131203,0.22648126105743316,"2 Av. Antarès, 72100 Le Mans, Francija",True
ANTWERPEN SPORTPALEIS,ANTWERP GIANTS,51.23112200000001,4.4410291,"Merksem, Antwerpen, Antwerpen, Vlaams Gewest, Belgium",False
ARENA ARMEEC,LUKOIL ACADEMIC SOFIA,42.6714647,23.3693952,"БАН IV км., Sofia, Sofia City Province, Bulgaria",True
ARENA ARMEEC SOFIA,CSU ASESOFT PLOIESTI,42.6714647,23.3693952,"БАН IV км., Sofia, Sofia City Province, Bulgaria",False
ARENA ARMEEC SOFIA,PBC LUKOIL ACADEMIC,42.6714647,23.3693952,"БАН IV км., Sofia, Sofia City Province, Bulgaria",False
ARENA DOLCE VITA,OVARENSE,40.87844864525676,-8.633304792318668,"Av. Dom Manuel I 2030, 3880-109 Ovar, Portugalska",True
ARENA RIGA,ASK RIGA,56.9676941,24.1056221,"Riga, Latvia",False
ARENA RIGA,BARONS RIGA,56.9676941,24.1056221,"Riga, Latvia",False
ARENA RIGA,PROMETEY SLOBOZHANSKE,56.9676941,24.1056221,"Riga, Latvia",False
ARENA RIGA,VEF RIGA,56.9676941,24.1056221,"Riga, Latvia",False
ARENA SAMOKOV,LUKOIL ACADEMIC SOFIA,42.3369976,23.5527975,"Samokov, Sofia Province, Bulgaria",False
ARENA STOZICE,BUDUCNOST VOLI PODGORICA,46.0813903,14.5214679,"Ljubljana, Slovenia",False
ARENA STOZICE,CEDEVITA OLIMPIJA LJUBLJANA,46.0813903,14.5214679,"Ljubljana, Slovenia",False
ARENA STOZICE,PARTIZAN NIS BELGRADE,46.0813903,14.5214679,"Ljubljana, Slovenia",False
ARENA STOZICE,UNION OLIMPIJA LJUBLJANA,46.0813903,14.5214679,"Ljubljana, Slovenia",False
ARTLAND ARENA,ARTLAND DRAGONS,"52.67767095726766, ",7.964845164258541,"Jahnstraße 21, 49610 Quakenbrück, Nemčija",True
ARTLAND ARENA,ARTLAND DRAGONS QUAKENBRUECK,"52.67767095726766, ",7.964845164258541,"Jahnstraße 21, 49610 Quakenbrück, Nemčija",True
ASTROBALLE,ASVEL BASKET,45.76635810000001,4.9073674,"Villeurbanne, Rhône, Auvergne-Rhône-Alpes, France",False
ASTROBALLE,ASVEL LYON,45.76635810000001,4.9073674,"Villeurbanne, Rhône, Auvergne-Rhône-Alpes, France",False
ASTROBALLE,ASVEL LYON VILLEURBANNE,45.76635810000001,4.9073674,"Villeurbanne, Rhône, Auvergne-Rhône-Alpes, France",False
ASTROBALLE,ASVEL VILLEURBANNE,45.76635810000001,4.9073674,"Villeurbanne, Rhône, Auvergne-Rhône-Alpes, France",False
ASTROBALLE,ASVEL VILLEURBANNE LYON,45.76635810000001,4.9073674,"Villeurbanne, Rhône, Auvergne-Rhône-Alpes, France",False
ASTROBALLE,LDLC ASVEL VILLEURBANNE,45.76635810000001,4.9073674,"Villeurbanne, Rhône, Auvergne-Rhône-Alpes, France",False
ATATURK SPO SALONU,TURK TELEKOM,39.9399847,32.848817,"Anafartalar, Altındağ, Ankara, Türkiye",False
ATATURK SPOR SALONU,TURK TELEKOM,39.9399847,32.848817,"Anafartalar, Altındağ, Ankara, Türkiye",False
AUDI DOME,FC BAYERN MUNICH,48.1261064,11.5253135,"Sendling-Westpark, München, Kreisfreie Stadt München, Oberbayern, Bayern, Germany",False
AUDI-DOME,FC BAYERN MUNICH,48.1261064,11.5253135,"Sendling-Westpark, München, Kreisfreie Stadt München, Oberbayern, Bayern, Germany",False
AYHAN SAHENK SPORTS HALL,GALATASARAY,41.125642,29.0283797,"Darüşşafaka, Sarıyer, İstanbul, Türkiye",False
AYHAN SAHENK SPORTS HALL,GALATASARAY CAFE CROWN,41.125642,29.0283797,"Darüşşafaka, Sarıyer, İstanbul, Türkiye",False
AZOVMASH ARENA,AZOVMASH MARIUPOL,47.143339890564846,37.560493943607916,"Arena Azovmash, Mariupol, Donetsk Oblast, Ukrajina, 87500",True
AZOVMASH ARENA,BC AZOVMASH,47.143339890564846,37.560493943607916,"Arena Azovmash, Mariupol, Donetsk Oblast, Ukrajina, 87500",True
Arena Stozice Practice facility,CEDEVITA OLIMPIJA LJUBLJANA,46.0813903,14.5214679,"Ljubljana, Slovenia",False
Azovmash Arena,AZOVMASH MARIUPOL,47.1433245,37.560665,"Kalmiuskyi district, Mariupol', Mariupol's'ka city council, Donets'ka oblast, Ukraine",False
BALLSPORTHALLE,DEUTSCHE BANK SKYLINERS,50.1012765,8.5272349,"Frankfurt am Main West, Frankfurt am Main, Kreisfreie Stadt Frankfurt am Main, Darmstadt, Hessen, Germany",False
BANVIT KARA ALI ACAR SPOR SALONU,BANVIT BANDIRMA,40.33894,27.987088,"600 Evler, Bandırma, Balıkesir, Türkiye",False
BANVIT KARA ALI ACAR SPOR SALONU,BANVIT BK,40.33894,27.987088,"600 Evler, Bandırma, Balıkesir, Türkiye",False
BANVIT KARA ALI ACAR SPOR SALONU,BANVIT BK BANDIRMA,40.33894,27.987088,"600 Evler, Bandırma, Balıkesir, Türkiye",False
BANVIT KARA ALI ACAR SPORT HALL,BANVIT BANDIRMA,40.33894,27.987088,"600 Evler, Bandırma, Balıkesir, Türkiye",False
BASKET HALL,LOKOMOTIV KUBAN KRASNODAR,45.1173207,38.9811273,"Krasnodar, Gorod Krasnodar, Krasnodarskiy kray, Russia",False
BASKET HALL KAZAN,UNICS KAZAN,55.78235979999999,49.1267418,"Kazan, Vakhitovskiy, Gorod Kazan', Respublika Tatarstan, Russia",False
BASKET HALL KAZAN,ZENIT ST PETERSBURG,55.78235979999999,49.1267418,"Kazan, Vakhitovskiy, Gorod Kazan', Respublika Tatarstan, Russia",False
BASKET-HALL,PBC LOKOMOTIV KUBAN,45.1173207,38.9811273,"Krasnodar, Gorod Krasnodar, Krasnodarskiy kray, Russia",False
BASKET-HALL,PBC LOKOMOTIV KUBAN KRASNODAR,45.1173207,38.9811273,"Krasnodar, Gorod Krasnodar, Krasnodarskiy kray, Russia",False
BASKET-HALL,UNICS,45.1173207,38.9811273,"Krasnodar, Gorod Krasnodar, Krasnodarskiy kray, Russia",False
BASKET-HALL,UNICS KAZAN,45.1173207,38.9811273,"Krasnodar, Gorod Krasnodar, Krasnodarskiy kray, Russia",False
BASKET-HALL KAZAN,UNICS KAZAN,55.78235979999999,49.1267418,"Kazan, Vakhitovskiy, Gorod Kazan', Respublika Tatarstan, Russia",False
BASKETBALL CENTER  DRAZEN PETROVIC,CEDEVITA ZAGREB,45.8026091,15.9635008,"Zagreb, Grad Zagreb, Croatia",False
BASKETBALL CENTER  DRAZEN PETROVIC,CIBONA ZAGREB,45.8026091,15.9635008,"Zagreb, Grad Zagreb, Croatia",False
BASKETBALL CENTER  DRAZEN PETROVIC,KK CIBONA,45.8026091,15.9635008,"Zagreb, Grad Zagreb, Croatia",False
BASKETBALL CENTER  DRAZEN PETROVIC,KK CIBONA ZAGREB,45.8026091,15.9635008,"Zagreb, Grad Zagreb, Croatia",False
BASKETBALL CENTER OF MOSCOW REGGION,KHIMKI,55.88577429999999,37.456785,"Khimki, Novyye Khimki, Khimki, Moskovskaya oblast', Russia",False
BASKETBALL CENTER OF MOSCOW REGION,BC KHIMKI,55.88577429999999,37.456785,"Khimki, Novyye Khimki, Khimki, Moskovskaya oblast', Russia",False
BASKETBALL CENTER OF MOSCOW REGION,KHIMKI,55.88577429999999,37.456785,"Khimki, Novyye Khimki, Khimki, Moskovskaya oblast', Russia",False
BASKETBALL CENTER OF MOSCOW REGION,KHIMKI MOSCOW REGION,55.88577429999999,37.456785,"Khimki, Novyye Khimki, Khimki, Moskovskaya oblast', Russia",False
BASKETBALL CENTER OF MOSCOW REGION,LIETUVOS RYTAS,55.88577429999999,37.456785,"Khimki, Novyye Khimki, Khimki, Moskovskaya oblast', Russia",False
BASKETBALL CENTER OF MOSCOW REGION,VALENCIA BASKET,55.88577429999999,37.456785,"Khimki, Novyye Khimki, Khimki, Moskovskaya oblast', Russia",False
BASKETBALL CITY MAINHATTAN,FRAPORT SKYLINERS FRANKFURT,40.7097802,-73.9847377,"Manhattan, New York, New York County, New York, United States",False
BASKETBALL HALL JAZINE,KK ZADAR,44.1107674,15.2328616,"Zadar, Općina Zadar, Zadarska županija, Croatia",False
BASKETBALL KAZAN,UNICS KAZAN,55.7878944,49.12332929999999,"Kazan, Gorod Kazan', Republic of Tatarstan, Russia",False
BEAUBLANC,LIMOGES CSP,45.84762749999999,1.243385,"Limoges, Haute-Vienne, Nouvelle-Aquitaine, France",False
BESIKTAS ARENA,BESIKTAS SOMPO JAPAN ISTANBUL,41.08701066408199,29.02304417299097,"Akat, Açelya Sk No:2, 34335 Beşiktaş/İstanbul, Turčija", Açelya Sk No:2
BESIKTAS INTEGRAL ARENA,BESIKTAS IF ISTANBUL,41.08701066408199,29.02304417299097,"Akat, Açelya Sk No:2, 34335 Beşiktaş/İstanbul, Turčija",True
BESIKTAS INTEGRAL ARENA,BESIKTAS INTEGRAL FOREX ISTANBUL,41.08701066408199,29.02304417299097,"Akat, Açelya Sk No:2, 34335 Beşiktaş/İstanbul, Turčija",True
BIELLA FORUM,LAURETANA BIELLA,45.5467871,8.0793108,"Biella, Biella, Provincia di Biella, Piemonte, Italy",False
BILBAO ARENA,BILBAO BASKET,43.252258473666835,-2.926175311456404,"Askatasuna Etorb., 13, 48003 Bilbo, Bizkaia, Španija",True
BILBAO ARENA,DOMINION BILBAO BASKET,43.252258473666835,-2.926175311456404,"Askatasuna Etorb., 13, 48003 Bilbo, Bizkaia, Španija", 13
BILBAO ARENA,GESCRAP BILBAO BASKET,43.252258473666835,-2.926175311456404,"Askatasuna Etorb., 13, 48003 Bilbo, Bizkaia, Španija",True
BILBAO ARENA,RETABET BILBAO BASKET,43.252258473666835,-2.926175311456404,"Askatasuna Etorb., 13, 48003 Bilbo, Bizkaia, Španija",True
BILBAO ARENA,UXUE BILBAO BASKET,43.252258473666835,-2.926175311456404,"Askatasuna Etorb., 13, 48003 Bilbo, Bizkaia, Španija",True
BJK COLATURKA ARENA,BESIKTAS COLA TURKA,41.08702683601714,29.02309781782025,"Akat, Açelya Sk No:2, 34335 Beşiktaş/İstanbul, Turčija",True
BLM GROUP ARENA,DOLOMITI ENERGIA TRENTO,46.04114487760551,11.123226505300426,"38123 Trento, Autonomous Province of Trento, Italija",True
BORIS TRAJKOVSKI,MZT SKOPJE AERODROM,42.009527,21.4040192,"Karposhi, Shkupi, Komuna e Karposhit, Qyteti i Shkupit, North Macedonia",False
BROSE ARENA,BROSE BASKETS BAMBERG,49.879190905010475,10.920406863320682,"Forchheimer Str. 15, 96050 Bamberg, Nemčija",True
BT-Arena,U-BT CLUJ-NAPOCA,46.7672051,23.5702936,"Cluj-Napoca, Municipiul Cluj - Napoca, Județul Cluj, Romania",False
Bizkaia Arena/BEC,BILBAO BASKET,43.287902,-2.989424,"Barakaldo, Bizkaia, Euskadi, Spain",False
CEC NAGORNY,NIZHNY NOVGOROD,56.2921314,43.9791607,"Nizhnij Novgorod, Sovetskiy, Nizhny Novgorod Urban Okrug, Nizhegorodskaya oblast', Russia",False
CENTAR MILLENIUM,HEMOFARM,45.1183624,21.311286,"Vršac, Južnobanatski okrug, Vojvodina, Serbia",False
CENTAR MILLENIUM,KK HEMOFARM STADA,45.1183624,21.311286,"Vršac, Južnobanatski okrug, Vojvodina, Serbia",False
CENTENNIAL HALL,SLASK WROCLAW,51.10693612231383,17.07728500308066,"Wystawowa 1, 51-618 Wrocław, Poljska",True
CENTER STOZICE,UNION OLIMPIJA LJUBLJANA,46.0805313,14.5242517,"Ljubljana, Slovenia",False
CENTRO INSULAR DE DEPORTES,CB GRAN CANARIA,28.1130847,-15.4177436,"Las Palmas de Gran Canaria, Las Palmas, Canarias, Spain",False
CENTRO INSULAR DE DEPORTES,GRAN CANARIA,28.1130847,-15.4177436,"Las Palmas de Gran Canaria, Las Palmas, Canarias, Spain",False
CENTRO INSULAR DE DEPORTES,GRAN CANARIA 2014,28.1130847,-15.4177436,"Las Palmas de Gran Canaria, Las Palmas, Canarias, Spain",False
CENTRO INSULAR DE DEPORTES,KALISE GRAN CANARIA,28.1130847,-15.4177436,"Las Palmas de Gran Canaria, Las Palmas, Canarias, Spain",False
CENTRUM REKREACYJNO SPORTOWE,STELMET ZIELONA GORA,51.9561565,15.5235548,"Zielona Góra, Zielona Góra, Lubuskie, Poland",False
CENTRUM REKREACYJNO-SPORTOWE,PGE TUROW ZGORZELEC,51.9561565,15.5235548,"Zielona Góra, Zielona Góra, Lubuskie, Poland",False
CENTRUM REKREACYJNO-SPORTOWE,STELMET ZIELONA GORA,51.9561565,15.5235548,"Zielona Góra, Zielona Góra, Lubuskie, Poland",False
CEZ ARENA,CEZ BASKETBALL NYMBURK,50.0402227,15.7694845,"Pardubice I, Pardubice, Pardubický kraj, Czechia",True
CEZ ARENA,CEZ NYMBURK,50.0402227,15.7694845,"Pardubice I, Pardubice, Pardubický kraj, Czechia",True
CEZ ARENA PARDUBICE,CEZ BASKETBALL NYMBURK,50.0402227,15.7694845,"Pardubice I, Pardubice, Pardubický kraj, Czechia",False
CIDO ARENA,7BET-LIETKABELIS PANEVEZYS,55.732906189894045,24.342438829594563,"Panevėžys, 35190 Panevėžys City Municipality, Litva", 35190 Panevėžys City Municipality
CIDO ARENA,LIETKABELIS PANEVEZYS,55.732906189894045,24.342438829594563,"Panevėžys, 35190 Panevėžys City Municipality, Litva",True
"CULTURAL AND ENTERTAINMENT COMPLEX ""NAGORNY""",NIZHNY NOVGOROD,56.29222662606477,43.97918216313552,"Prospekt Gagarina, 29, Nizhny Novgorod, Nizhny Novgorod Oblast, Rusija, 603057",True
DARUSSAFAKA AYHAN SAHENK,GALATASARAY,41.125642,29.0283797,"Darüşşafaka, Sarıyer, İstanbul, Türkiye",False
DE MAASPOORT DEN BOSCH,EIFFELTOWERS DEN BOSCH,51.7226614,5.3155905,"'s-Hertogenbosch, 's-Hertogenbosch, Noord-Brabant, Netherlands",False
DIMITRIS TOFALOS ARENA,PROMITHEAS PATRAS,38.28386614033245,21.773414732052753,"Patras 264 43, Grčija",True
DOCKS OCÉANE,LE HAVRE,49.4911842,0.132135,"Le Havre, Seine-Maritime, Normandie, France",False
DOM SPORTOVA,CEDEVITA ZAGREB,45.808124,15.9524627,"Zagreb, Grad Zagreb, Croatia",False
DOM SPORTOVA ZAGREB,CEDEVITA ZAGREB,45.808124,15.9524627,"Zagreb, Grad Zagreb, Croatia",False
DRAZEN PETROVIC,CEDEVITA ZAGREB,45.80239215665472,15.963404231986319,"Savska 30, 10000, Zagreb, Hrvaška", 10000
DRAZEN PETROVIC,CIBONA ZAGREB,45.80239215665472,15.963404231986319,"Savska 30, 10000, Zagreb, Hrvaška",True
DRUZHBA MULTIPURPOSE ARENA,NIZHNY NOVGOROD,55.712566,37.5663435,"Tsentralnyy administrativnyy okrug, Moskva, Khamovniki, Moskva, Moskva, Russia",False
DS METEOR,BUDIVELNIK,48.43594162193466,35.004566733545126,"Dnipro, Dnipropetrovsk Oblast, Ukrajina, 49000",True
EDEL-OPTICS.DE ARENA,HAMBURG TOWERS,53.495832160321015,10.002137892174693,"Kurt-Emmerich-Platz 10-12, 21109 Hamburg, Nemčija",True
EDEL-OPTICS.DE ARENA,VEOLIA TOWERS HAMBURG,53.495832160321015,10.002137892174693,"Kurt-Emmerich-Platz 10-12, 21109 Hamburg, Nemčija",True
EKINOX,JL BOURG EN BRESSE,46.18632979641398,5.247110277083758,"25 Av. du Maréchal Juin, 01000 Bourg-en-Bresse, Francija",True
EKINOX,MINCIDELICE JL BOURG EN BRESSE,46.18632979641398,5.247110277083758,"25 Av. du Maréchal Juin, 01000 Bourg-en-Bresse, Francija",True
ENERGIA AREENA,BISONS LOIMAA,60.2600215,24.83857,"Vantaa, Finland",False
ERGO ARENA,TREFL SOPOT,54.42779969317747,18.58062249580356,"plac Dwóch Miast 1, 80-344 Gdańsk, Poljska",True
EWE ARENA,EWE BASKETS OLDENBURG,53.14643461923166,8.228732302944747,"Maastrichter Str. 1, 26123 Oldenburg, Nemčija",True
FERNANDO BUESA ARENA,ALBA BERLIN,42.8640882,-2.6416474,"Gasteiz, Araba, Euskadi, Spain",False
FERNANDO BUESA ARENA,BILBAO BASKET,42.8640882,-2.6416474,"Gasteiz, Araba, Euskadi, Spain",False
FERNANDO BUESA ARENA,POWER ELECTRONICS VALENCIA,42.8640882,-2.6416474,"Gasteiz, Araba, Euskadi, Spain",False
FERNANDO MARTIN,MONTAKIT FUENLABRADA,40.28259297359239,-3.800473923640354,"Plaza de la Constitución, 1, 28943 Fuenlabrada, Madrid, Španija",True
FOENIX ARENA,SZOLNOKI OLAJ,47.55245326079177,21.642071467001706,"Debrecen, Kassai út 28, 4028 Madžarska",True
FOK MESHERSKIY,NIZHNY NOVGOROD,56.338687945821576,43.94300350522978,"Ulitsa Karla Marksa, 21, Nizhny Novgorod, Nizhny Novgorod Oblast, Rusija, 603159",True
FRAPORT ARENA,FRAPORT SKYLINERS,50.101331513698696,8.527224173770932,"Silostraße 46, 65929 Frankfurt am Main, Nemčija",True
FRAPORT ARENA,FRAPORT SKYLINERS FRANKFURT,50.101331513698696,8.527224173770932,"Silostraße 46, 65929 Frankfurt am Main, Nemčija",True
FSC OLYMP,KHIMIK YUZHNE,53.1550102,12.1710348,"Pritzwalk, Prignitz, Brandenburg, Germany",False
FUENTE DE SAN LUIS,VALENCIA BASKET,39.4438036,-0.3671856,"Fonteta de Sant Lluís, Valencia, Valencia, Valencian Community, Spain",False
GAN NER ARENA,HAPOEL GILBOA GALIL,32.528706,35.336254,"Gan Ner, Yizrael, North District, Israel",False
GDYNIA ARENA,ARKA GDYNIA,54.498953560786326,18.531241682892414,"Kazimierza Górskiego 8, 81-302 Gdynia, Poljska",True
GDYNIA ARENA,ASSECO ARKA GDYNIA,54.498953560786326,18.531241682892414,"Kazimierza Górskiego 8, 81-302 Gdynia, Poljska",True
GEW ENERGY DOME,KÖLN 99ERS,50.9501047,6.8801241,"Ehrenfeld, Köln, Kreisfreie Stadt Köln, Köln, Nordrhein-Westfalen, Germany",False
GOLDBERG ARENA,HAPOEL GILBOA GALIL,31.75664467823199,35.18091345927131,"Avraham Stern St 3, Jerusalem, Izrael",True
GOLDBERG ARENA,HAPOEL JERUSALEM,31.75664467823199,35.18091345927131,"Avraham Stern St 3, Jerusalem, Izrael",True
GOLDBERG ARENA,HAPOEL MIGDAL JERUSALEM,31.75664467823199,35.18091345927131,"Avraham Stern St 3, Jerusalem, Izrael",True
GOLDBERG ARENA,HAPOEL S.C. JERUSALEM,31.75664467823199,35.18091345927131,"Avraham Stern St 3, Jerusalem, Izrael",True
GRAN CANARIA ARENA,GRAN CANARIA,28.103017137895346,-15.456441619571397,"C. Fondos de Segura, s/n, 35019 Las Palmas de Gran Canaria, Las Palmas, Španija",True
GRAN CANARIA ARENA,HERBALIFE GRAN CANARIA,28.103017137895346,-15.456441619571397,"C. Fondos de Segura, s/n, 35019 Las Palmas de Gran Canaria, Las Palmas, Španija",True
GRAN CANARIA ARENA,HERBALIFE GRAN CANARIA LAS PALMAS,28.103017137895346,-15.456441619571397,"C. Fondos de Segura, s/n, 35019 Las Palmas de Gran Canaria, Las Palmas, Španija",True
GROSSE EWE ARENA,EWE BASKETS OLDENBURG,53.1463317,8.228807399999999,"Oldenburg, Kreisfreie Stadt Oldenburg, Niedersachsen, Germany",False
GROSSE EWE ARENA,EWE BASKETS OLDENBURG ,53.1463317,8.228807399999999,"Oldenburg, Kreisfreie Stadt Oldenburg, Niedersachsen, Germany",False
GUILFORD SPECTRUM,GUILDFORD HEAT,51.2494169,-0.5622614,"Surrey, England, United Kingdom",False
HALA MISTRZOW,ANWIL WLOCLAWEK,52.64206091310289,19.07843120756477,"Aleja Fryderyka Chopina 8, 87-810 Włocławek, Poljska",True
HALA ORBITA,ASCO SLASK WROCLAW,51.1322137,16.986762,"Fabryczna, Wrocław, Wrocław, Dolnośląskie, Poland",False
HALA ORBITA,SLASK WROCLAW,51.1322137,16.986762,"Fabryczna, Wrocław, Wrocław, Dolnośląskie, Poland",False
HALA ORBITA,TUROW ZGORZELEC,51.1322137,16.986762,"Fabryczna, Wrocław, Wrocław, Dolnośląskie, Poland",False
HALA PIONIR,CRVENA ZVEZDA,44.815548,20.4847738,"Beograd, Grad Beograd, Serbia",False
HALA PIONIR,CRVENA ZVEZDA DIVA BELGRADE,44.815548,20.4847738,"Beograd, Grad Beograd, Serbia",False
HALA PIONIR,CRVENA ZVEZDA TELEKOM BELGRADE,44.815548,20.4847738,"Beograd, Grad Beograd, Serbia",False
HALA SPORTOVA RANKO ZERAVICA,PARTIZAN NIS BELGRADE,44.8276589,20.4064171,"Novi Beograd, Beograd, Grad Beograd, Serbia",False
HALE ANDRE VACHERESSE,CHORALE ROANNE,46.0312493,4.0515147,"Roanne, Loire, Auvergne-Rhône-Alpes, France",False
HALLE CARPENTIER,JSF NANTERRE,48.8201482,2.3672397,"Paris, Département de Paris, Île-de-France, France",False
HAYRI GUR ARENA,TRABZONSPOR MEDICAL PARK,40.9867199,39.8047948,"Pelitli, Ortahisar, Trabzon, Türkiye",False
HELLINIKO OLYMPIC ARENA,PANIONIOS ATHENS,37.8967839,23.7226122,"Elliniko, Notios Tomeas Athinon, Greece",False
HELSINKI ICE HALL,BISONS LOIMAA,60.1892751,24.9225114,"Helsinki, Finland",False
Halle Georges Carpinter,PARIS BASKETBALL,48.8201482,2.3672397,"Paris, Département de Paris, Île-de-France, France",False
"INDOOR HALL PERISTERIOU ""ANDREAS PAPANDREOU""",PANELLINIOS,38.02827367925028,23.678873617244633,"Damaskineas 2, Peristeri 121 37, Grčija",True
JAKO ARENA BAMBERG,BROSE BASKETS,49.8790665,10.9203854,"Bamberg, Kreisfreie Stadt Bamberg, Oberfranken, Bayern, Germany",False
JANE SANDANSKI,MZT SKOPJE AERODROM,41.993254,21.464572,"North Macedonia, Aerodrom, Skopje, Aerodrom, Greater Skopje",False
JEZERO,RADNICKI KRAGUJEVAC,44.01359760154373,20.923726859466033,"Grada Sirena 15, Kragujevac 34000, Srbija",True
JP CENTAR MORACA,BUDUCNOST VOLI PODGORICA,42.43909698555913,19.253710016553576,"C7Q3+6JJ, Ivana Milutinovića, Podgorica, Črna gora",True
JP CENTAR MORACA,KK BUDUCNOST,42.43909698555913,19.253710016553576,"C7Q3+6JJ, Ivana Milutinovića, Podgorica, Črna gora",True
JP CENTAR MORACA,KK BUDUCNOST ,42.43909698555913,19.253710016553576,"C7Q3+6JJ, Ivana Milutinovića, Podgorica, Črna gora",True
JP CENTAR MORACA,KK BUDUCNOST VOLI,42.43909698555913,19.253710016553576,"C7Q3+6JJ, Ivana Milutinovića, Podgorica, Črna gora",True
KARSIYAKA ARENA,PINAR KARSIYAKA IZMIR,38.47459824982481,27.07622710430253,"Mavişehir, 2040/3. Sk., 35540 Karşıyaka/İzmir, Turčija",True
KAUNAS SPORTS HALL,BC PRIENAI,54.8962562,23.9360774,"Kaunas, Kauno apskritis, Lithuania",False
KAUNAS SPORTS HALL,RUDUPIS,54.8962562,23.9360774,"Kaunas, Kauno apskritis, Lithuania",False
KFAR BLUM,HAPOEL GALIL ELYON,33.172527,35.607938,"Kfar Blum, Tzfat, North District, Israel",False
KIEV PALACE OF SPORTS,BUDIVELNIK KIEV,50.43718550000001,30.5224655,"Pechers'kyi district, Kyiv, Kyiv City, Kyiv, Ukraine",False
KLEINE EWE ARENA,EWE BASKETS OLDENBURG,53.14643461783969,8.228796676353506,"Maastrichter Str. 1, 26123 Oldenburg, Nemčija",True
KLEINE EWE ARENA,EWE BASKETS OLDENBURG ,53.14643461783969,8.228796676353506,"Maastrichter Str. 1, 26123 Oldenburg, Nemčija",True
KOMBANK ARENA,CRVENA ZVEZDA TELEKOM BELGRADE,44.81522280930069,20.421893474219832,"Булевар Арсенија Чарнојевића 58, Београд 11070",True
KOSARKASKA DVORANA FMP - ZELEZNIK,BC FMP,44.7312437,20.3766346,"Beograd, Grad Beograd, Serbia",False
KOSARKASKI CENTAR DRAZEN PETROVIC,CEDEVITA ZAGREB,45.8026091,15.9635008,"Zagreb, Grad Zagreb, Croatia",False
KRISTALL ARENA,AVTODOR SARATOV,51.51401482298674,45.99589835773885,"д63 к 2, ул. Чернышевского, Саратов, Саратовская обл., 410004",True
KRYLATSKOYE SPORTS PALACE,KRASNY OKTYABR VOLGOGRAD,55.75727639999999,37.4434239,"Zapadnyy administrativnyy okrug, Moskva, Krylatskoye, Moskva, Moskva, Russia",False
KYIV SPORTS PALLACE,BC KYIV,50.43718550000001,30.5224655,"Pechers'kyi district, Kyiv, Kyiv City, Kyiv, Ukraine",False
LA CASILLA,RETABET BILBAO BASKET,43.25670059999999,-2.943647,"Bilbo, Bizkaia, Euskadi, Spain",False
LA FONTETA,VALENCIA BASKET,39.4516754,-0.3660431,"València, Valencia, Comunidad Valenciana, Spain",False
LA MEILLERAIE,CHOLET BASKET,47.05768579999999,-0.8968887000000001,"Cholet, Maine-et-Loire, Pays de la Loire, France",False
LAKTASI,IGOKEA ALEKSANDROVAC,44.9064386,17.3014638,"Laktaši, Republika Srpska, Bosnia and Herzegovina",False
LAMIA ARENA,PANELLINIOS BC,38.89186027463253,22.445933747588075,"Lamia, Greece",True
LAND ROVER ARENA,FORTITUDO BOLOGNA,44.500018356387386,11.331714152543894,"Piazza Manfredi Azzarita, 3, 40122 Bologna BO, Italija",True
LE COLISEE,ELAN CHALON,46.78691629999999,4.864756499999999,"Chalon-sur-Saône, Saône-et-Loire, Bourgogne-Franche-Comté, France",False
LE COLISEE,ELAN CHALON SUR SAONE,46.78691629999999,4.864756499999999,"Chalon-sur-Saône, Saône-et-Loire, Bourgogne-Franche-Comté, France",False
LIETUVOS RYTAS ARENA,LIETUVOS RYTAS VILNIUS,54.71644990090124,25.2797875165429,"Ozo g. 14, 08200 Vilnius, Litva",True
LOKHALLE GOETTINGEN,BG GOETTINGEN,51.5368126,9.922518799999999,"Weststadt, Göttingen, Göttingen, Niedersachsen, Germany",False
LOTTO ARENA,ANTWERP GIANTS,51.23029092410637,4.442244975402416,"Schijnpoortweg 119, 2170 Antwerpen, Belgija",True
LOTTO ARENA,TELENET GIANTS ANTWERP,51.23029092410637,4.442244975402416,"Schijnpoortweg 119, 2170 Antwerpen, Belgija",True
MAASPORT SPORTS & EVENTS,EIFFELTOWERS DEN BOSCH,51.7226614,5.3155905,"'s-Hertogenbosch, 's-Hertogenbosch, Noord-Brabant, Netherlands",False
MACCABI SPORTS HALL,MACCABI RISHON LEZION,31.969723947821308,34.78646896269846,"Golda Me'ir St 9, Rishon LeTsiyon, Izrael",True
MADRID ARENA,ASEFA ESTUDIANTES,40.413205611606294,-3.7382520091708877,"Av. de Portugal, s/n, 28011 Madrid, Španija",True
MALCHA SPORTS HALL,HAPOEL GILBOA GALIL,31.75672674147139,35.18086518435429,"Avraham Stern St 3, Jerusalem, Izrael",True
MALCHA SPORTS HALL,HAPOEL MIGDAL JERUSALEM,31.75672674147139,35.18086518435429,"Avraham Stern St 3, Jerusalem, Izrael",True
MAPOORO ARENA,FOXTOWN CANTU,45.740144660373964,9.10010815374003,"Via Cantù, 10, 22060 Cucciago CO, Italija",True
MARCEL CERDAN,BOULOGNE METROPOLITANS 92,48.896075252945074,2.278255786071942,"141 Rue Danton, 92300 Levallois-Perret, Francija",True
MARTIN CARPENA,UNICAJA MALAGA,36.6825857,-4.4604807,"Málaga, Málaga, Andalucía, Spain",False
MARTINI PLAZA,GASTERRA FLAMES,53.2025759,6.555294099999999,"Stadsparkwijk, Groningen, Groningen, Groningen, Netherlands",False
MARTINI PLAZA,HANZEVAST CAPITALS,53.2025759,6.555294099999999,"Stadsparkwijk, Groningen, Groningen, Groningen, Netherlands",False
MARTINI PLAZA,MPC CAPITALS,53.2025759,6.555294099999999,"Stadsparkwijk, Groningen, Groningen, Groningen, Netherlands",False
MAURICE THOREZ,NANTERRE 92,48.89228597974999,2.211565236315271,"136 Av. Frederic et Irene Joliot Curie, 92000 Nanterre, Francija",True
MAX SCHMELING HALLE,ALBA BERLIN,52.5449373,13.404347,"Bezirk Pankow, Berlin, Kreisfreie Stadt Berlin, Berlin, Germany",False
MEDIOLANUM FORUM,EA7 EMPORIO ARMANI MILAN,45.4014122,9.142294699999999,"Assago, Assago, Città Metropolitana di Milano, Lombardia, Italy",False
MENORA MIVTACHIM ARENA,MACCABI FOX TEL AVIV,32.0612909,34.79138030000001,"Tel Aviv-Yafo, Tel Aviv District, Israel",False
MERCEDES-BENZ ARENA,ALBA BERLIN,52.50641357513736,13.44362784759504,"Mercedes-Platz 1, 10243 Berlin, Nemčija",True
MERIDIAN SPORT KOMPLEX,BC DONETSK,50.441395202511046,30.419745579187012,"Heroiv Sevastopolya St, 11В, Kyiv, Ukrajina, 02000",True
METRO WEST RAANANA,BNEI HASHARON,32.1899657,34.8772006,"Ra'anana, Petach Tikva, Center District, Israel",False
MHP ARENA,MHP RIESEN LUDWIGSBURG,48.89092051480893,9.182913579119719,"Schwieberdinger Str. 30, 71636 Ludwigsburg, Nemčija",True
MHPARENA,MHP RIESEN LUDWIGSBURG,48.89092051480893,9.182913579119719,"Schwieberdinger Str. 30, 71636 Ludwigsburg, Nemčija",True
MIRZA DELIBASIC,KK BOSNA,43.854699354224586,18.413976460970954,"VC37+RJC, Sarajevo 71000, Bosna in Hercegovina",True
MONS ARENA,BELFIUS MONS HAINAUT,50.45042913551187,3.875464396184059,"Rue des Laminoirs 2a, 7012 Mons, Belgija",True
MONS ARENA,DEXIA MONS-HAINAUT,50.45042913551187,3.875464396184059,"Rue des Laminoirs 2a, 7012 Mons, Belgija",True
MONS.ARENA,DEXIA MONS-HAINAUT,50.45042913551187,3.875464396184059,"Rue des Laminoirs 2a, 7012 Mons, Belgija",True
MORACA,BUDUCNOST VOLI,42.56595417722637,19.25939390381886,Montenegro,False
MORACA,BUDUCNOST VOLI PODGORICA,42.56595417722637,19.25939390381886,Montenegro,False
"NATIONAL ATHLETIC CENTER ""MAKIS LIOUGAS""",PANIONIOS IDROGIOS,37.8594468,23.7555632,"Αθήνα, Νότιος Τομέας Αθηνών, Greece",False
"NATIONAL ATHLETIC CENTER ""MAKIS LIOUGAS""",PANIONIOS ON TELECOMS,37.8594468,23.7555632,"Αθήνα, Νότιος Τομέας Αθηνών, Greece",False
NGC CANTU,BENNET CANTU,45.740029988971315,9.100228855331308,"Via Cantù, 10, 22060 Cucciago CO, Italija",True
O.A.K.A.,BC MAROUSSI,38.037713,23.7842981,"Marousi, Vorios Tomeas Athinon, Greece",False
O2 WORLD,ALBA BERLIN,52.5063143,13.4436316,"Bezirk Friedrichshain-Kreuzberg, Berlin, Kreisfreie Stadt Berlin, Berlin, Germany",False
OLIMPIA,CSU ASESOFT PLOIESTI,44.93211007667839,26.011722418246077,"Strada Alecu Russo 10, Ploiești 107592, Romunija",True
OLIMPIA SPORTS ARENA,CSU ASESOFT PLOIESTI,44.93211007667839,26.011722418246077,"Strada Alecu Russo 10, Ploiești 107592, Romunija",True
OLIMPIA SPORTS ARENA,PLOIESTI,44.93211007667839,26.011722418246077,"Strada Alecu Russo 10, Ploiești 107592, Romunija",True
OLIVIA SPORT HALL,PLOIESTI,44.93211007667839,26.011722418246077,"Strada Alecu Russo 10, Ploiești 107592, Romunija",True
OLYMP,KHIMIK YUZHNE,46.621185667228815,31.100057579496657,"50-річчя Перемоги пл. 2, Yuzhne, Одеська, Ukrajina, 65481",True
OLYMPIC CENTER VENTSPILS,VENTSPILS,57.3869343,21.5713809,"Ventspils, Latvia",False
OLYMPIC COMPLEX-HELLINIKON,PANELLINIOS,37.89713948558119,23.72265511556223,"Leof. Posidonos, Elliniko Argiroupoli 167 77, Grčija",True
OLYMPIC COMPLEX-HELLINIKON,PANIONIOS ATHENS,37.89713948558119,23.72265511556223,"Leof. Posidonos, Elliniko Argiroupoli 167 77, Grčija",True
OLYMPIC COMPLEX-HELLINIKON,PANIONIOS BC ATHENS,37.89713948558119,23.72265511556223,"Leof. Posidonos, Elliniko Argiroupoli 167 77, Grčija",True
OLYMPIC COMPLEX-HELLINIKON,PANIONIOS ON TELECOMS,37.89713948558119,23.72265511556223,"Leof. Posidonos, Elliniko Argiroupoli 167 77, Grčija",True
OLYMPIC HALL ZETRA,KK BOSNA,43.87184209999999,18.4094958,"Bosnia and Herzegovina, Sarajevo, Sarajevo Canton, Federation of Bosnia and Herzegovina",False
OLYMPIC SPORTS CENTER ATHENS,AEK ATHENS,38.0386851,23.7864059,"Athina, Vorios Tomeas Athinon, Greece",False
OVO Arena Wembley ,LONDON LIONS,51.558096,-0.282586,"Greater London, England, United Kingdom",False
PABELLON FUENTE DE SAN LUIS,PAMESA VALENCIA,39.4516754,-0.3660431,"València, Valencia, Comunidad Valenciana, Spain",False
PABELLON FUENTE DE SAN LUIS,POWER ELECTRONICS VALENCIA,39.4516754,-0.3660431,"València, Valencia, Comunidad Valenciana, Spain",False
PABELLON FUENTE DE SAN LUIS,VALENCIA BASKET,39.4516754,-0.3660431,"València, Valencia, Comunidad Valenciana, Spain",False
PABELLON FUENTE DE SAN LUIS,VALENCIA BASKET CLUB,39.4516754,-0.3660431,"València, Valencia, Comunidad Valenciana, Spain",False
PABELLON MUNICIPAL DE DEPORTES DE BADALONA,CLUB JOVENTUT BADALONA,41.4425079,2.2319852,"Badalona, Barcelona, Catalunya, Spain",False
PABELLON MUNICIPAL DE DEPORTES DE BADALONA,DKV JOVENTUT,41.4425079,2.2319852,"Badalona, Barcelona, Catalunya, Spain",False
PABELLON PRINCIPE FELIPE,CAI ZARAGOZA,41.6354463,-0.8658883,"Zaragoza, Zaragoza, Aragón, Spain",False
PABELLÓN MUNICIPAL DE DEPORTES DE SAN PABLO,CAJASOL,37.396371118438104,-5.963437654537083,"Calle Dr. Laffon Soto, s/n, 41007 Sevilla, Španija",True
PABELLÓN MUNICIPAL DE DEPORTES DE SAN PABLO,CAJASOL SEVILLE,37.396371118438104,-5.963437654537083,"Calle Dr. Laffon Soto, s/n, 41007 Sevilla, Španija",True
PABELLÓN MUNICIPAL DE DEPORTES SAN PABLO,BALONCESTO SEVILLE,37.397044,-5.9642414,"Sevilla, Sevilla, Andalucía, Spain",False
PAIS ARENA JERUSALEM,HAPOEL BANK YAHAV JERUSALEM,31.751318,35.1941643,"Jerusalem, Jerusalem District, Israel",False
PAIS ARENA JERUSALEM,HAPOEL JERUSALEM,31.751318,35.1941643,"Jerusalem, Jerusalem District, Israel",False
PALABIGI,GRISSIN BON REGGIO EMILIA,44.6992193,10.6245567,"Reggio Emilia, Reggio Emilia, Provincia di Reggio Emilia, Emilia-Romagna, Italy",False
PALAC SPORT,BC BUDIVELNIK KIEV,50.43718550000001,30.5224655,"Pechers'kyi district, Kyiv, Kyiv City, Kyiv, Ukraine",False
PALACIO DE DEPORTES JOSE MARIA MARTIN CARPENA,UNICAJA MALAGA,36.6825857,-4.4604807,"Málaga, Málaga, Andalucía, Spain",False
PALACIO DE LOS DEPORTES DE MURCIA,UCAM MURCIA,37.9938163,-1.1126474,"Murcia, Murcia, Región de Murcia, Spain",False
PALACIO MUNICIPAL DE DEPORTES (HUESCA),CAI ZARAGOZA,42.1341209,-0.4214848,"Huesca, Huesca, Aragón, Spain",False
PALACIO VISTALEGRE,ASEFA ESTUDIANTES,40.3860038,-3.7385633,"Madrid, Madrid, Comunidad de Madrid, Spain",False
PALACIO VISTALEGRE,CLUB ESTUDIANTES,40.3860038,-3.7385633,"Madrid, Madrid, Comunidad de Madrid, Spain",False
PALADOZZA,FORTITUDO BOLOGNA,44.4999036,11.332551,"Bologna, Bologna, Città Metropolitana di Bologna, Emilia-Romagna, Italy",False
PALADOZZA,GRISSIN BON REGGIO EMILIA,44.4999036,11.332551,"Bologna, Bologna, Città Metropolitana di Bologna, Emilia-Romagna, Italy",False
PALADOZZA,SEGAFREDO VIRTUS BOLOGNA,44.4999036,11.332551,"Bologna, Bologna, Città Metropolitana di Bologna, Emilia-Romagna, Italy",False
PALADOZZA,VIRTUS SEGAFREDO BOLOGNA,44.4999036,11.332551,"Bologna, Bologna, Città Metropolitana di Bologna, Emilia-Romagna, Italy",False
PALAESTRA,MONTEPASCHI SIENA,43.33415091383993,11.313805077150251,"Viale Achille Sclavo, 12, 53100 Siena SI, Italija",True
PALAIS DES SPORTS,ARIS BSA,40.626860507988454,22.957397753472243,"Grigoriou Lampraki 2, Thessaloniki 546 36, Grčija",False
PALAIS DES SPORTS,ARIS BSA 2003,40.626860507988454,22.957397753472243,"Grigoriou Lampraki 2, Thessaloniki 546 36, Grčija",False
PALAIS DES SPORTS,ARIS THESSALONIKI,40.626860507988454,22.957397753472243,"Grigoriou Lampraki 2, Thessaloniki 546 36, Grčija",False
PALAIS DES SPORTS DE BEAUBLANC,LIMOGES CSP,45.84762749999999,1.243385,"Limoges, Haute-Vienne, Nouvelle-Aquitaine, France",False
PALAIS DES SPORTS DE PAU,ELAN BEARNAIS PAU-ORTHEZ,43.3345273,-0.3626929,"Pau, Pyrénées-Atlantiques, Nouvelle-Aquitaine, France",False
PALAIS DES SPORTS JEAN MICHEL GEOFFROY,JDA DIJON,47.3324775,5.0559287,"Dijon, Côte-d'Or, Bourgogne-Franche-Comté, France",False
PALAIS DES SPORTS JEAN WEILLE,SLUC NANCY,48.6992588,6.139349999999999,"Nancy, Meurthe-et-Moselle, Grand Est, France",False
PALAIS DES SPORTS MARCEL CERDAN,LEVALLOIS METROPOLITANS,48.8960571,2.2782495,"Levallois-Perret, Hauts-de-Seine, Île-de-France, France",False
PALAIS DES SPORTS MARCEL CERDAN,PARIS LEVALLOIS,48.8960571,2.2782495,"Levallois-Perret, Hauts-de-Seine, Île-de-France, France",False
PALAIS DES SPORTS MAURICE THOREZ,JSF NANTERRE,48.8919873,2.2118765,"Nanterre, Hauts-de-Seine, Île-de-France, France",False
PALAIS DES SPORTS MAURICE THOREZ,NANTERRE 92,48.8919873,2.2118765,"Nanterre, Hauts-de-Seine, Île-de-France, France",False
"PALAIS DES SPORTS, ORLEANS",ORLEANS LOIRET BASKET,47.9098824,1.9125002,"Orléans, Loiret, Centre-Val de Loire, France",False
PALALEONESSA,GERMANI BRESCIA LEONESSA,45.5272873,10.1749369,"Brescia, Brescia, Provincia di Brescia, Lombardia, Italy",False
PALALEONESSA A2A,GERMANI BRESCIA,45.5272873,10.1749369,"Brescia, Brescia, Provincia di Brescia, Lombardia, Italy",False
PALALEONESSA A2A,GERMANI BRESCIA LEONESSA,45.5272873,10.1749369,"Brescia, Brescia, Provincia di Brescia, Lombardia, Italy",False
PALAMAGGIO,PEPSI CASERTA,41.1314583,14.3107109,"Castel Morrone, Caserta, Provincia di Caserta, Campania, Italy",False
PALAPENTASSUGLIA,ENEL BASKET BRINDISI,40.6142855,17.9467838,"Brindisi, Brindisi, Provincia di Brindisi, Puglia, Italy",False
PALARUFFINI,FIAT TURIN,45.05768279999999,7.6324333,"Torino, Torino, Città Metropolitana di Torino, Piemonte, Italy",False
PALASCAPRIANO,TERAMO BASKET,42.6697222,13.6872222,"Teramo, Teramo, Provincia di Teramo, Abruzzo, Italy",False
PALASERRADIMIGNI,DINAMO BANCO DI SARDEGNA SASSARI,40.7170208,8.5829602,"Sassari, Sassari, Provincia di Sassari, Sardegna, Italy",False
PALASERRADIMINGNI,DINAMO BANCO DI SARDEGNA SASSARI,40.7170208,8.5829602,"Sassari, Sassari, Provincia di Sassari, Sardegna, Italy",True
"PALASPORT ""LINO OLDRINI""",CIMBERIO VARESE,45.8359581,8.8027067,"Varese, Varese, Provincia di Varese, Lombardia, Italy",False
PALASPORT OLIMPICO,BENETTON BASKET TREVISO,45.041498,7.652269199999999,"Torino, Torino, Città Metropolitana di Torino, Piemonte, Italy",False
PALASPORT OLIMPICO,BILBAO BASKET,45.041498,7.652269199999999,"Torino, Torino, Città Metropolitana di Torino, Piemonte, Italy",False
PALASPORT OLIMPICO,HEMOFARM,45.041498,7.652269199999999,"Torino, Torino, Città Metropolitana di Torino, Piemonte, Italy",False
PALASPORT OLIMPICO,KHIMKI,45.041498,7.652269199999999,"Torino, Torino, Città Metropolitana di Torino, Piemonte, Italy",False
PALASPORT OLIMPICO,LIETUVOS RYTAS,45.041498,7.652269199999999,"Torino, Torino, Città Metropolitana di Torino, Piemonte, Italy",False
PALASPORT OLIMPICO,MBC DYNAMO MOSCOW,45.041498,7.652269199999999,"Torino, Torino, Città Metropolitana di Torino, Piemonte, Italy",False
PALASPORT OLIMPICO,PAMESA VALENCIA,45.041498,7.652269199999999,"Torino, Torino, Città Metropolitana di Torino, Piemonte, Italy",False
PALASPORT TALIERCIO,JL BOURG EN BRESSE,45.4885171,12.2786054,"Venezia, Venezia, Città Metropolitana di Venezia, Veneto, Italy",False
PALASPORT TALIERCIO,UMANA REYER VENICE,45.4885171,12.2786054,"Venezia, Venezia, Città Metropolitana di Venezia, Veneto, Italy",False
PALATALIERCIO,UMANA REYER VENICE,45.4885171,12.2786054,"Venezia, Venezia, Città Metropolitana di Venezia, Veneto, Italy",False
PALATIZIANO,VIRTUS ROME,41.9296513,12.4707309,"Roma, Roma, Città Metropolitana di Roma, Lazio, Italy",False
PALATRENTO,DOLOMITI ENERGIA TRENTO,46.041063,11.1231514,"Trento, Trento, Autonomous Province of Trento, Trentino-South Tyrol, Italy",False
PALAU BLAUGRANA,JOVENTUT BADALONA,41.3800515,2.1201319,"Barcelona, Barcelona, Catalunya, Spain",False
PALAU OLIMPIC DE BADALONA,JOVENTUT BADALONA,41.4425079,2.2319852,"Badalona, Barcelona, Catalunya, Spain",False
PALAU OLÍMPIC DE BADALONA,DKV JOVENTUT ,41.4425079,2.2319852,"Badalona, Barcelona, Catalunya, Spain",False
PALAVELA,AKASVAYU GIRONA,45.02345649999999,7.6691715,"Torino, Torino, Città Metropolitana di Torino, Piemonte, Italy",False
PALAVELA,BESIKTAS COLA TURKA,45.02345649999999,7.6691715,"Torino, Torino, Città Metropolitana di Torino, Piemonte, Italy",False
PALAVELA,DKV JOVENTUT,45.02345649999999,7.6691715,"Torino, Torino, Città Metropolitana di Torino, Piemonte, Italy",False
PALAVELA,FIAT TURIN,45.02345649999999,7.6691715,"Torino, Torino, Città Metropolitana di Torino, Piemonte, Italy",False
PALAVELA,MBC DYNAMO MOSCOW,45.02345649999999,7.6691715,"Torino, Torino, Città Metropolitana di Torino, Piemonte, Italy",False
PALAVERDE,BENETTON BASKET,45.724118,12.2626219,"Lancenigo, Villorba, Provincia di Treviso, Veneto, Italy",False
PALAVERDE,BENETTON BASKET TREVISO,45.724118,12.2626219,"Lancenigo, Villorba, Provincia di Treviso, Veneto, Italy",False
PALAVERDE,BENETTON GIOCO DIGITALE,45.724118,12.2626219,"Lancenigo, Villorba, Provincia di Treviso, Veneto, Italy",False
PALAVERDE,UNICS,45.724118,12.2626219,"Lancenigo, Villorba, Provincia di Treviso, Veneto, Italy",False
PALAWHIRLPOOL,CIMBERIO VARESE,45.8359581,8.8027067,"Varese, Varese, Provincia di Varese, Lombardia, Italy",False
PALAZZETTO DELLO SPORT,VIRTUS ROME,41.9296513,12.4707309,"Roma, Roma, Città Metropolitana di Roma, Lazio, Italy",False
PANELLINIOS G.S.,PANELLINIOS,37.99489878868747,23.73492786073158,"Evelpidon 2, Athina 113 62, Grčija",True
PAOK SPORT ARENA,PAOK,40.56546609999999,22.9814063,"Pilea, Thessaloniki, Greece",False
PAOK SPORT ARENA,PAOK BC,40.56546609999999,22.9814063,"Pilea, Thessaloniki, Greece",False
PAOK SPORT ARENA,PAOK THESSALONIKI,40.56546609999999,22.9814063,"Pilea, Thessaloniki, Greece",False
PAOK SPORTS ARENA,PAOK THESSALONIKI,40.56546609999999,22.9814063,"Pilea, Thessaloniki, Greece",False
PAVELLÓ GIRONA-FONTAJAU,AKASVAYU GIRONA,41.9904584,2.8107352,"Girona, Girona, Catalunya, Spain",False
PAVELLÓ GIRONA-FONTAJAU,CLUB BASQUET GIRONA,41.9904584,2.8107352,"Girona, Girona, Catalunya, Spain",False
PAVILHAO DA OVARENSE,OVARENSE,40.87629454453078,-8.63286578812777,"Rua Lourenço Oliveira Vaz 138, 3880-109 Ovar, Portugalska",True
PGE TUROW ARENA,PGE TUROW ZGORZELEC,51.158935219383935,15.014167047006397,"Lubańska 9a, 59-900 Zgorzelec, Poljska",True
PHILLIPSHAVE,KÖLN 99ERS,51.20634178272445,6.808616377699274,"Siegburger Str. 15, 40591 Düsseldorf, Nemčija",True
PIONIR,CRVENA ZVEZDA TELEKOM BELGRADE,44.815548,20.4847738,"Beograd, Grad Beograd, Serbia",False
PIONIR,PARTIZAN NIS BELGRADE,44.815548,20.4847738,"Beograd, Grad Beograd, Serbia",False
"POLIDEPORTIVO MUNICIPAL ""LA CASILLA""",BILBAO BASKET,43.25670059999999,-2.943647,"Bilbo, Bizkaia, Euskadi, Spain",False
POLIESPORTIU D'ANDORRA,MORABANC ANDORRA,42.504814,1.5166156,"Andorra la Vella, Andorra la Vella, Andorra",False
PORSCHE ARENA,ENBW LUDWIGSBURG,48.793335970146046,9.228010289848266,"Mercedesstraße 69, 70372 Stuttgart, Nemčija",True
RASTA DOME,EWE BASKETS OLDENBURG ,52.7334359,8.2607751,"Vechta, Vechta, Niedersachsen, Germany",False
RATIOPHARM ARENA,RATIOPHARM ULM,48.3818208672905,10.00485927477612,"Europastraße 25, 89231 Neu-Ulm, Nemčija",True
RATIOPHARM ARENA	,RATIOPHARM ULM,48.3818208672905,10.00485927477612,"Europastraße 25, 89231 Neu-Ulm, Nemčija",True
RHENUS SPORT,STRASBOURG,48.59946,7.765324,"Strasbourg, Bas-Rhin, Grand Est, France",False
ROMEMA ARENA,MACCABI HAIFA BAZAN,31.7914796,35.2058748,"Romema, Jerusalem, Jerusalem District, Israel",False
ROMENA SPORT ARENA,MACCABI HAIFA BAZAN,31.7914796,35.2058748,"Romema, Jerusalem, Jerusalem District, Israel",True
RTL SPIROU DOME,BELGACOM SPIROU CHARLEROI,50.4239284,4.4462651,"Charleroi, Hainaut, Région Wallonne, Belgium",False
RTL SPIROUDOME,BELGACOM SPIROU BASKET,50.4239284,4.4462651,"Charleroi, Hainaut, Région Wallonne, Belgium",False
RTL SPIROUDOME,BELGACOM SPIROU CHARLEROI,50.4239284,4.4462651,"Charleroi, Hainaut, Région Wallonne, Belgium",False
RTL SPIROUDOME,PROXIMUS SPIROU CHARLEROI,50.4239284,4.4462651,"Charleroi, Hainaut, Région Wallonne, Belgium",False
RTL SPIROUDOME,UXUE BILBAO BASKET,50.4239284,4.4462651,"Charleroi, Hainaut, Région Wallonne, Belgium",False
RUDI-SEDLMAYER-HALLE,FC BAYERN MUNICH,48.1261064,11.5253135,"Sendling-Westpark, München, Kreisfreie Stadt München, Oberbayern, Bayern, Germany",False
S.OLIVER ARENA,S.OLIVER BASKETS WURZBURG,49.77352145004034,9.941164203155237,"Stettiner Str. 1, 97072 Würzburg, Nemčija",True
SAKU ARENA,BC KALEV,59.42610646458049,24.64735900491194,"Paldiski mnt 104b, 13522 Tallinn, Estonija",True
SAKU SUURHALL ARENA,KALEV CRAMO TALLINN,59.42603010000001,24.6473591,"Haabersti linnaosa, Tallinn, Harju maakond, Estonia",False
SALA POLIVALENTA,STEAUA CSM EXIMBANK BUCHAREST,44.4053795,26.1109869,"Sector 4, București, Municipiul București, București, Romania",False
SALLE SAINTE-CROIX,FRIBOURG OLYMPIC,46.8217968,6.502222199999999,"Sainte-Croix, Jura-Nord vaudois District, Vaud, Switzerland",False
SC BORIS TRAJKOVSKI,MZT SKOPJE AERODROM,42.009527,21.4040192,"Karposhi, Shkupi, Komuna e Karposhit, Qyteti i Shkupit, North Macedonia",False
SC MORACIA,KK BUDUCNOST,42.43821694549407,19.254013704393454,"Ivana Milutinovića, Podgorica, Črna gora", Ivana Milutinovića
SC MORACIA,KK BUDUCNOST ,42.43821694549407,19.254013704393454,"Ivana Milutinovića, Podgorica, Črna gora", Podgorica
SD SUTINSKA VRELA,CEDEVITA ZAGREB,45.8178834,15.8330748,"Zagreb, Grad Zagreb, Croatia",False
SHLOMO GROUP ARENA,HAPOEL TEL AVIV,32.1092396,34.8107547,"Tel Aviv-Yafo, Tel Aviv District, Israel",False
SIAULIAI ARENA,SIAULIAI,55.92119913508901,23.2819408062439,"Šiauliu Arena, J. Jablonskio g. 16, 78162 Šiauliai, Litva",True
SIBUR ARENA,ZENIT ST PETERSBURG,59.97148973089392,30.226616718332846,"Futbol'naya Alleya, 8, St Petersburg, Rusija, 197110",True
SIEMENS ARENA,LIETUVOS RYTAS,54.716656925399086,25.279728320250886,"Ozo g. 14, 08200 Vilnius, Litva",True
SIEMENS ARENA,LIETUVOS RYTAS VILNIUS,54.716656925399086,25.279728320250886,"Ozo g. 14, 08200 Vilnius, Litva",True
SIEMENS ARENA,LIETUVOUS RYTAS VILNIUS,54.716656925399086,25.279728320250886,"Ozo g. 14, 08200 Vilnius, Litva",True
SIEMENS ARENA,RYTAS VILNIUS,54.716656925399086,25.279728320250886,"Ozo g. 14, 08200 Vilnius, Litva",True
SINAN ERDEM DOME,BESIKTAS SOMPO JAPAN ISTANBUL,40.9881234,28.85273279999999,"Zuhuratbaba, Bakırköy, İstanbul, Türkiye",False
SINAN ERDEM DOME,GALATASARAY ODEABANK ISTANBUL,40.9881234,28.85273279999999,"Zuhuratbaba, Bakırköy, İstanbul, Türkiye",False
SINAN ERDEM DOME.,GALATASARAY DOGA SIGORTA ISTANBUL,40.9881234,28.85273279999999,"Zuhuratbaba, Bakırköy, İstanbul, Türkiye",False
SINAN ERDEM DOME.,GALATASARAY ISTANBUL,40.9881234,28.85273279999999,"Zuhuratbaba, Bakırköy, İstanbul, Türkiye",False
SLEUYTER ARENA,OOSTENDE,51.2172699,2.8886811,"Oostende, West-Vlaanderen, Vlaams Gewest, Belgium",False
SLEUYTER ARENA,TELENET OOSTENDE,51.2172699,2.8886811,"Oostende, West-Vlaanderen, Vlaams Gewest, Belgium",False
SLEUYTER ARENA,TELENET OSTEND,51.2172699,2.8886811,"Oostende, West-Vlaanderen, Vlaams Gewest, Belgium",False
SPARTAK ARENA,SPARTAK SAINT PETERSBURG,59.95051685026668,30.29176798503744,"Prospekt Dobrolyubova, 18, St Petersburg, Rusija, 197198", 18
SPIROU DOME,SPIROU BASKET,50.4239284,4.4462651,"Charleroi, Hainaut, Région Wallonne, Belgium",False
"SPORT CENTAR VISNJIC ""KRESIMIR COSIC""",KK ZADAR,44.11921549918835,15.245047863149706,Splitska ul. 3, 23000
SPORT HALL LAKTASI,IGOKEA ALEKSANDROVAC,44.9076535,17.3083533,"Laktaši, Republika Srpska, Bosnia and Herzegovina",False
"SPORTHALL ""LEON STUKELJ""",KRKA NOVO MESTO,45.79686933916283,15.159226017303313,"Šegova ulica 112, 8000 Novo mesto", 8000 Novo mesto
SPORTICA,BCM GRAVELINES,40.2567239,-74.3674928,"Manalapan Township, Monmouth County, New Jersey, United States",False
SPORTICA,BCM GRAVELINES DUNKERQUE,40.2567239,-74.3674928,"Manalapan Township, Monmouth County, New Jersey, United States",False
SPORTOVNI CENTRUM NYMBURK,CEZ BASKETBALL NYMBURK,50.1784269,15.0589782,"Nymburk, Nymburk, Středočeský kraj, Czechia",False
SPORTOVNI HALA SC NYMBURK,CEZ BASKETBALL NYMBURK,50.1784269,15.0589782,"Nymburk, Nymburk, Středočeský kraj, Czechia",False
SPORTS COMPLEX AZOVMASH,BC AZOVMASH,47.1415571,37.5645605,"Kalmiuskyi district, Mariupol', Mariupol's'ka city council, Donets'ka oblast, Ukraine",False
SPORTS COMPLEX AZOVMASH,BC AZOVMASH MARIUPOL,47.1415571,37.5645605,"Kalmiuskyi district, Mariupol', Mariupol's'ka city council, Donets'ka oblast, Ukraine",False
SPORTS COMPLEX AZOVMASH,BC DONETSK,47.1415571,37.5645605,"Kalmiuskyi district, Mariupol', Mariupol's'ka city council, Donets'ka oblast, Ukraine",False
SPORTS COMPLEX KRYLATSKOE,MBC DYNAMO MOSCOW,55.7639899,37.4048954,"Krylatskoye District, Moscow, Krylatskoye, Moscow, Moscow, Russia",False
SPORTS HALL DRUZHBA,BC DONETSK,48.00312703063377,37.84491018496906,Illicha Ave, 93А
SPORTSKA DVORANA TOPOLICA,MORNAR BAR,42.1031027,19.0942398,"Bar, Bar Municipality, Montenegro",False
STADE LOUIS II,AS MONACO,43.72758169999999,7.4156038,"Monaco, Monaco",False
STARK ARENA,DARUSSAFAKA TEKFEN ISTANBUL,44.81424500065107,20.421321590344036,Bulevar Arsenija Čarnojevica 58, Beograd 11070
STARK ARENA,PARTIZAN NIS BELGRADE,44.81424500065107,20.421321590344036,Bulevar Arsenija Čarnojevica 58, Beograd 11070
SVYTURIO ARENA,NEPTUNAS KLAIPEDA,55.6874,21.1518,"Klaipėda, Klaipėdos apskritis, Lithuania",False
Shlomo Group Arena,HAPOEL TEL AVIV,32.1092396,34.8107547,"Tel Aviv-Yafo, Tel Aviv District, Israel",False
Shlomo Group Arena,HAPOEL VEGAN FRIENDLY TEL AVIV,32.1092396,34.8107547,"Tel Aviv-Yafo, Tel Aviv District, Israel",False
TELEKOM DOME,BASKETS BONN,50.7050756,7.060493699999999,"Hardtberg, Bonn, Bonn, Köln, Nordrhein-Westfalen, Germany",False
TELEKOM DOME,TELEKOM BASKETS BONN,50.7050756,7.060493699999999,"Hardtberg, Bonn, Bonn, Köln, Nordrhein-Westfalen, Germany",False
TIPSPORT ARENA,CEZ BASKETBALL NYMBURK,50.0755381,14.4378005,"Prague, Hlavní město Praha, Prague, Czechia",True
TIPSPORT ARENA,TUROW ZGORZELEC,50.75281971285732,15.049978984399177,"Jeronýmova 570/22, 460 07 Liberec, Češka",True
TIPSPORT ARENA PRAGUE,CEZ BASKETBALL NYMBURK,50.0755381,14.4378005,"Prague, Hlavní město Praha, Prague, Czechia",False
TISZALIGETI,SZOLNOKI OLAJ,47.1667549,20.192152,"Tiszaliget, Szolnok, Hungary",False
TISZALIGETI SPORTS HALL,SZOLNOKI OLAJ,47.1692329,20.1974655,"Szolnok, Hungary",False
TIVOLI ARENA,UNION OLIMPIJA LJUBLJANA,46.05994865525464,14.494912319231275,Celovška cesta 25, 1000 Ljubljana
TOFAS SPOR SALONU,CEDEVITA OLIMPIJA LJUBLJANA,40.2273412,28.9717787,"Fethiye, Nilüfer, Bursa, Türkiye",False
TOFAS SPOR SALONU,FRUTTI EXTRA BURSASPOR,40.2273412,28.9717787,"Fethiye, Nilüfer, Bursa, Türkiye",False
TOFAS SPOR SALONU,NANTERRE 92,40.2273412,28.9717787,"Fethiye, Nilüfer, Bursa, Türkiye",False
TOFAS SPOR SALONU,TOFAS BURSA,40.2273412,28.9717787,"Fethiye, Nilüfer, Bursa, Türkiye",False
TOPOLICA SPORTS HALL,MORNAR BAR,42.1031027,19.0942398,"Bar, Bar Municipality, Montenegro",False
TRADE UNION SPORT PALACE,NIZHNY NOVGOROD,56.2921314,43.9791607,"Nizhnij Novgorod, Sovetskiy, Nizhny Novgorod Urban Okrug, Nizhegorodskaya oblast', Russia",False
The Copperbox Arena,LONDON LIONS,51.54437859999999,-0.0194024,"Greater London, England, United Kingdom",False
"UNIVERSAL SPORT HALL ""OLYMP""",KRASNYE KRYLIA,55.7951,37.5404,"Severnyy administrativnyy okrug, Moskva, Khoroshevskiy, Moskva, Moskva, Russia",False
UNIVERSIADA,LUKOIL ACADEMIC SOFIA,42.6807456,23.3558025,"g.k. Yavorov, Sofia, Sofia City Province, Bulgaria",False
UNIVERSIADA HALL,LUKOIL ACADEMIC SOFIA,42.6807456,23.3558025,"g.k. Yavorov, Sofia, Sofia City Province, Bulgaria",False
UNIVERSIADA HALL,PBC LUKOIL ACADEMIC,42.6807456,23.3558025,"g.k. Yavorov, Sofia, Sofia City Province, Bulgaria",False
USH CSKA,ZENIT ST PETERSBURG,55.7951,37.5404,"Severnyy administrativnyy okrug, Moskva, Khoroshevskiy, Moskva, Moskva, Russia",False
VENTSPILS NAFTA HALL,BK VENTSPILS,57.4088355,21.620621,"Ventspils, Latvia",False
VENTSPILS OLYMPIC CENTER,BK VENTSPILS,57.38706147587352,21.57138090757095,"Sporta iela 7/9, Ventspils, LV-3601, Latvija",True
VESZPREM ARENA,ALBA FEHERVAR,47.1028087,17.9093019,"Veszprém, Hungary",False
VIRTUS SEGAFREDO ARENA,VIRTUS SEGAFREDO BOLOGNA,44.510202425502314,11.366470933729689,"Via Alfredo Calzoni, 40128 Bologna BO, Italija", 40128 Bologna BO
VOLGOGRAD TRADE UNION SPORTS PALACE,KRASNY OKTYABR VOLGOGRAD,48.708048,44.5133034,"Volgograd, Gorod Volgograd, Volgograd Oblast, Russia",False
VOLKSBANK-ARENA GMUNDEN,SWANS GMUNDEN,47.91839,13.79933,"Gmunden, Gmunden District, Upper Austria, Austria",False
VOLKSWAGEN ARENA ,DARUSSAFAKA ISTANBUL,41.108926750450294,29.007703205092934,"Huzur Mh., Maslak Ayazağa Cd. 4/A, 34396 Sarıyer/İstanbul, Turčija",True
VOLKSWAGEN ARENA ,DARUSSAFAKA TEKFEN ISTANBUL,41.108926750450294,29.007703205092934,"Huzur Mh., Maslak Ayazağa Cd. 4/A, 34396 Sarıyer/İstanbul, Turčija",True
VOLKSWAGEN HALLE,BG GOETTINGEN,52.25730000000001,10.519114,"Westliches Ringgebiet, Braunschweig, Kreisfreie Stadt Braunschweig, Niedersachsen, Germany",False
"YUBILEYNI ""SPORT"" PALACE",SPARTAK ST. PETERSBURG,59.9502805,30.2916124,"Sankt-Peterburg, Petrogradskiy, Sankt-Peterburg, Russia",False
YUBILEYNI ARENA,ZENIT ST PETERSBURG,59.9502805,30.2916124,"Sankt-Peterburg, Petrogradskiy, Sankt-Peterburg, Russia",False
YUBILEYNY SPORTS PALACE,ZENIT ST PETERSBURG,59.9502805,30.2916124,"Sankt-Peterburg, Petrogradskiy, Sankt-Peterburg, Russia",False
ZALGIRIO ARENA,PROMETEY SLOBOZHANSKE,54.89082599458186,23.91467325632035,"Karaliaus Mindaugo pr. 50, 44334 Kaunas, Litva",True
ZALGIRIS ARENA,BUDIVELNIK KIEV,54.89082599458186,23.91467325632035,"Karaliaus Mindaugo pr. 50, 44334 Kaunas, Litva",True
ZENITH,ORLEANS LOIRET BASKET,47.870340490421995,1.9129130069684512,"1 Rue du Président Robert Schuman, 45100 Orléans, Francija",True
